{"version": 0.6, "generator": "Overpass API 0.7.62.1 084b4234", "osm3s": {"timestamp_osm_base": "2024-04-21T02:40:08Z", "copyright": "The data included in this document is from www.openstreetmap.org. The data is made available under ODbL."}, "elements": [{"type": "node", "id": 6007598102, "lat": 36.060892, "lon": 71.8195754, "tags": {"name": "Azhar General Store", "shop": "greengrocer"}}, {"type": "node", "id": 6135478824, "lat": 36.0586282, "lon": 71.8183048, "tags": {"amenity": "marketplace", "name": "Ziarat Bazar Madashil"}}, {"type": "node", "id": 6768659383, "lat": 36.0591677, "lon": 71.8185566, "tags": {"name": "Rehmat General Store", "shop": "general"}}, {"type": "node", "id": 6768659384, "lat": 36.059154, "lon": 71.8185525, "tags": {"shop": "general"}}, {"type": "node", "id": 6768694985, "lat": 36.059138, "lon": 71.8185478, "tags": {"shop": "general"}}, {"type": "node", "id": 9810327710, "lat": 36.1538997, "lon": 72.0986949, "tags": {"name": "supermarket", "shop": "supermarket"}}, {"type": "node", "id": 9810348827, "lat": 36.0204426, "lon": 72.014483, "tags": {"name": "Mini market", "shop": "supermarket"}}]}